Time,Car.Distance,Car.WFL.rot,Car.WFR.rot,Car.WRL.rot,Car.WRR.rot,CarAccTrgt,CarAccelTrgt,CarDistTrgt,Carvtrgt,ClutchPedPos,EngineSpeedRef,GearNumber,PitchAngleTrgt,Time.Global,Time.WC,Vhcl.sRoad,Brake.Hyd.Sys.pMC,Brake.Hyd.Sys.pMC_in,Brake.Hyd.Sys.pWB_FL,Brake.Hyd.Sys.pWB_FR,Brake.Hyd.Sys.pWB_RL,Brake.Hyd.Sys.pWB_RR,Car.CFL.rx,Car.CFL.ry,Car.CFL.rz,Car.CFL.tx,Car.CFL.ty,Car.CFL.tz,Car.CFR.rx,Car.CFR.ry,Car.CFR.rz,Car.CFR.tx,Car.CFR.ty,Car.CFR.tz,Car.CRL.rx,Car.CRL.ry,Car.CRL.rz,Car.CRL.tx,Car.CRL.ty,Car.CRL.tz,Car.CRR.rx,Car.CRR.ry,Car.CRR.rz,Car.CRR.tx,Car.CRR.ty,Car.CRR.tz,Car.Fr1.rx,Car.Fr1.ry,Car.Fr1.rz,Car.Fr1.tx,Car.Fr1.ty,Car.Fr1.tz,Car.FxFL,Car.FxFR,Car.FxRL,Car.FxRR,Car.FyFL,Car.FyFR,Car.FyRL,Car.FyRR,Car.FzFL,Car.FzFR,Car.FzRL,Car.FzRR,Car.Gen.ax_1,Car.Gen.ay_1,Car.Gen.vx_1,Car.LongSlipFL,Car.LongSlipFR,Car.LongSlipRL,Car.LongSlipRR,Car.Pitch,Car.Road.Path.DevDist,Car.Roll,Car.SideSlipAngle,Car.TrqAlignFL,Car.TrqAlignFR,Car.TrqAlignRL,Car.TrqAlignRR,Car.TrqOvertFL,Car.TrqOvertFR,Car.TrqOvertRL,Car.TrqOvertRR,Car.TrqRollFL,Car.TrqRollFR,Car.TrqRollRL,Car.TrqRollRR,Car.Yaw,Car.YawRate,Car.YawVel,Car.ax,Car.ay,Car.muRoadFL,Car.muRoadFR,Car.muRoadRL,Car.muRoadRR,Car.tx,Car.ty,Car.v,Car.vFL,Car.vFR,Car.vRL,Car.vRR,Car.vx,DM.Brake,DM.Clutch,DM.Gas,DM.ManDist,DM.Steer.Ang,DM.Steer.Trq,DM.v.Trgt,PT.Clutch.Trq_out,PT.Control.Consump.Fuel.Abs,PT.Control.Consump.Fuel.Act,PT.Control.Consump.Fuel.Avg,PT.Engine.Trq,PT.Engine.be,PT.Engine.rot,PT.Engine.rotv,PT.WFL.rotv,PT.WFR.rotv,PT.WRL.rotv,PT.WRR.rotv,PwrD.Tire.CambDeflFL,PwrD.Tire.CambDeflFR,PwrD.Tire.LatSlipFL,PwrD.Tire.LatSlipFR,PwrD.Tire.LongSlipFL,PwrD.Tire.LongSlipFR,PwrD.Tire.RollResistFL,PwrD.Tire.RollResistFR,PwrD.Tire.ToeSlipFL,PwrD.Tire.ToeSlipFR,PwrD.Tire.TotalFL,PwrD.Tire.TotalFR,PwrL.Aero,PwrL.Brake,PwrL.PT,PwrL.Tire,PwrL.Total,PwrS.Aero,PwrS.Brake,PwrS.PT,PwrS.Tire,PwrS.Total,Steer.WhlAng,Vhcl.Engine.rotv,Vhcl.FL.LongSlip,Vhcl.FL.SideSlip,Vhcl.FR.LongSlip,Vhcl.FR.SideSlip,Vhcl.Pitch,Vhcl.RL.LongSlip,Vhcl.RL.SideSlip,Vhcl.RR.LongSlip,Vhcl.RR.SideSlip,DM.GearNo,DM.ManNo,PT.GearBox.GearNo,VC.SelectorCtrl,Vhcl.GearNo,$none$
7.410000000000809,209.3943848551,671.5515993410968,671.5859945416358,677.1932330868235,677.1935604282336,-1.7428251862948352,1.20500004291534,38.18235473633917,28.97244002540505,99.0,1.0,2.0,0.024085543594376244,51.07799999997166,7.810144901275635,212.74278670886335,11.0,11.0,0.09996374696493149,0.09996374696493149,0.09996374696493149,0.09996374696493149,0.011260484345257282,-0.005832937080413103,0.0015935502015054226,0.0007949177525006235,-0.0001802477490855381,0.015202409587800503,-0.011313032358884811,-0.005833654198795557,-0.0016453665448352695,0.00078431615838781,0.00018067080236505717,0.015203152783215046,0.02376181073486805,0.025998976081609726,-0.0015559124294668436,-0.0006417544791474938,0.0016056157182902098,0.014268048107624054,-0.02376362681388855,0.025998201221227646,0.0015547052025794983,-0.0006410129135474563,-0.0016056462191045284,0.01426804717630148,1.1166122249051114e-06,0.0075812130235135555,2.7261330615147017e-06,209.39288330078125,5.550073183258064e-06,-0.0125043960288167,-45.58867645263672,-45.44049835205078,-32.41299819946289,-32.34206008911133,-78.02592468261719,67.07762908935547,-345.8790588378906,345.803466796875,4195.17724609375,4195.28271484375,3236.951416015625,3237.310302734375,-0.10365434736013412,-0.007319660857319832,29.146867752075195,0.0032482880633324385,0.0032497469801455736,0.003760439343750477,0.0037612603046000004,0.0075812130235135555,1.4836913578619715e-05,1.1166122249051114e-06,-3.0446387881966075e-06,2.756260633468628,-2.2880032062530518,5.596888542175293,-5.596312522888184,-20.312044143676758,20.294818878173828,-26.190208435058594,26.192333221435547,-13.375903129577637,-13.376238822937012,-10.320695877075195,-10.321839332580566,2.7261330615147017e-06,-4.613782948581502e-05,-4.613782948581502e-05,-0.10377322137355804,-0.006976673379540443,1.0,1.0,1.0,1.0,211.5584716796875,1.0841541552508716e-05,29.147693634033203,29.242652893066406,29.242433547973633,29.25718116760254,29.257152557373047,29.14685821533203,0.055000003427267075,1.0,0.0,0.23318533599376678,-0.0007308238418772817,0.051659177988767624,29.399999618530273,-0.0,0.0,0.0,0.0,-29.628341674804688,0.0,3302.177490234375,310.26727294921875,94.35234069824219,94.35160064697266,94.25115203857422,94.25109100341797,-0.02425340563058853,0.026275338605046272,-3.4735567569732666,-3.0107533931732178,-4.316381931304932,-4.304245948791504,1262.0634765625,1262.0859375,-2.9572925567626953,-2.4235057830810547,1250.8651123046875,1250.996826171875,0.0,622.3359375,0.7908482551574707,4452.29443359375,5075.4228515625,0.0,0.0,-9697.1796875,0.0,-14276.056640625,-0.000593522097915411,310.26727294921875,0.0032482880633324385,-0.0014612668892368674,0.0032497469801455736,0.0015907634515315294,0.0075812130235135555,0.003760439343750477,0.0017354327719658613,0.0037612603046000004,-0.001734268618747592,5,1,5,0,5,
7.420000000000813,209.68585546661436,672.4949817231399,672.529368248765,678.1356682570436,678.1359940976137,-2.930527710935655,1.20500004291534,38.50296745301195,28.944115142363483,99.0,1.0,2.0,0.024120450146138624,51.087999999971636,7.810731887817383,213.03425757253248,20.0,20.0,0.9932267665863037,0.9932267665863037,0.9932267665863037,0.9932267665863037,0.011267461813986301,-0.0056596435606479645,0.0016413424164056778,0.0007101958035491407,-0.00017717271111905575,0.015202422626316547,-0.011333556845784187,-0.005613469984382391,-0.0015085124177858233,0.0007118844077922404,0.00017721416952554137,0.015203173272311687,0.02375299297273159,0.026042738929390907,-0.0015708047430962324,-0.0006512462277896702,0.0016064246883615851,0.014275721274316311,-0.023753298446536064,0.026041854172945023,0.0015702933305874467,-0.0006503317854367197,-0.0016064222436398268,0.014275357127189636,-5.713097266379918e-07,0.007578787859529257,2.0592929104168434e-06,209.68435668945312,5.478560979099711e-06,-0.012513218447566032,-84.23788452148438,-84.18980407714844,-45.475990295410156,-45.41553497314453,-81.14318084716797,76.72688293457031,-348.4562072753906,348.57672119140625,4195.85107421875,4195.37255859375,3236.768310546875,3236.59228515625,-0.1739356368780136,-0.0031126688700169325,29.145626068115234,0.002853875979781151,0.002854503458365798,0.0035858512856066227,0.00358671136200428,0.007578787859529257,1.2641798093682155e-05,-5.713097266379918e-07,-4.185981651971815e-06,2.5718865394592285,-2.3582000732421875,5.538368225097656,-5.541889190673828,-20.30306625366211,20.337459564208984,-26.18163299560547,26.181621551513672,-13.3780517578125,-13.376524925231934,-10.320112228393555,-10.319550514221191,2.0592929104168434e-06,-7.904815720394254e-05,-7.904815720394254e-05,-0.1734125316143036,-0.0030305683612823486,1.0,1.0,1.0,1.0,211.84994506835938,1.042516032612184e-05,29.146451950073242,29.22983169555664,29.229551315307617,29.25044822692871,29.25037956237793,29.145618438720703,0.10000000149011612,1.0,0.0,0.5246571898460388,0.0006472665700130165,-0.020831504836678505,29.399999618530273,-0.0,0.0,0.0,0.0,-29.501163482666016,0.0,3305.273193359375,308.9354553222656,94.30392456054688,94.30294799804688,94.2262954711914,94.22602844238281,-0.025934163480997086,0.022728947922587395,-3.732930898666382,-3.1326682567596436,-7.006985187530518,-7.004453659057617,1261.714111328125,1261.5570068359375,-2.7572295665740967,-2.503262758255005,1251.000244140625,1250.705322265625,0.0,6180.6416015625,0.7840756773948669,4444.85107421875,10626.2880859375,0.0,0.0,-12150.548828125,0.0,-19830.861328125,0.00077383330790326,308.9354553222656,0.002853875979781151,-0.0014956003287807107,0.002854503458365798,0.001550324377603829,0.007578787859529257,0.0035858512856066227,0.0017383568920195103,0.00358671136200428,-0.001740241190418601,5,1,5,0,5,
7.430000000000816,209.97730786598,673.4375579420255,673.4719350353074,679.0777057198494,679.0780282517112,-3.565366697338715,1.20500004291534,38.76822280884754,28.90995922035073,99.0,1.0,2.0,0.02446951566364356,51.09799999997161,7.811275005340576,213.32570714968563,22.0,22.0,2.861327648162842,2.861327648162842,2.861327648162842,2.861327648162842,0.011298016645014286,-0.004769034218043089,0.0015033872332423925,0.0003285022103227675,-0.0001587705046404153,0.015185690484941006,-0.011344020254909992,-0.004694781731814146,-0.0012460805010050535,0.00034075649455189705,0.00015836834791116416,0.015185777097940445,0.023714706301689148,0.02619440108537674,-0.0016315781977027655,-0.0006979172467254102,0.0016086841933429241,0.01429689209908247,-0.0237136110663414,0.026192989200353622,0.0016314249951392412,-0.0006967567023821175,-0.0016086389077827334,0.014296024106442928,-2.3257409793586703e-06,0.0075790127739310265,1.2478009239202947e-06,209.97579956054688,5.463767593028024e-06,-0.012515502981841564,-199.48623657226562,-199.54917907714844,-81.5237808227539,-81.49759674072266,-99.3095474243164,103.36824798583984,-356.14788818359375,356.37384033203125,4201.29931640625,4200.4140625,3231.700927734375,3231.01953125,-0.3761642575263977,0.002432936569675803,29.143115997314453,0.0016779875149950385,0.0016773915849626064,0.0031045146752148867,0.0031049540266394615,0.0075790127739310265,9.902506462822203e-06,-2.3257409793586703e-06,-3.5039915928791743e-06,2.360029935836792,-2.496885299682617,5.388356685638428,-5.392807960510254,-20.354494094848633,20.42144775390625,-26.114715576171875,26.112661361694336,-13.395421981811523,-13.392600059509277,-10.303955078125,-10.301782608032227,1.2478009239202947e-06,-7.723394082859159e-05,-7.723394082859159e-05,-0.3734547793865204,0.002225404605269432,1.0,1.0,1.0,1.0,212.1414031982422,9.740076166053768e-06,29.143959045410156,29.19249725341797,29.192270278930664,29.232582092285156,29.232498168945312,29.143125534057617,0.11000000685453415,1.0,0.0,0.8161121010780334,0.0016539342468604445,-0.0840974971652031,29.399999618530273,-0.0,0.0,0.0,0.0,-29.37453269958496,0.0,3308.35595703125,307.609375,94.17664337158203,94.17581939697266,94.16407775878906,94.16368865966797,-0.02322099171578884,0.002408507512882352,-4.1539154052734375,-3.456042528152466,-9.755393028259277,-9.754935264587402,1261.7489013671875,1261.4716796875,-2.521794080734253,-2.660004138946533,1260.2220458984375,1259.8619384765625,0.0,17784.392578125,0.7773576378822327,4439.6787109375,22224.908203125,0.0,0.0,-14841.5224609375,0.0,-31455.4765625,0.0017151579959318042,307.609375,0.0016779875149950385,-0.0015018507838249207,0.0016773915849626064,0.0014576682588085532,0.0075790127739310265,0.0031045146752148867,0.001758192083798349,0.0031049540266394615,-0.0017618059646338224,5,1,5,0,5,
7.440000000000819,210.2687226018917,674.3785717252716,674.4129424366082,680.0189696684535,680.0192882751319,-4.330085897463273,1.20500004291534,39.051000595102984,28.867748489835975,99.0,1.0,2.0,0.024818581389208092,51.10799999997159,7.811858892440796,213.61711044387846,41.0,41.0,5.594212532043457,5.594212532043457,5.594212532043457,5.594212532043457,0.011322113685309887,-0.0029924786649644375,0.0011183242313563824,-0.00041901206714101136,-0.00012033562961732969,0.015138036571443081,-0.011323479935526848,-0.002921035047620535,-0.0008516433881595731,-0.00040273292688652873,0.00011958299000980332,0.015137032605707645,0.023636890575289726,0.026486612856388092,-0.0017511486075818539,-0.0007970634032972157,0.0016132649034261703,0.01434104423969984,-0.023635124787688255,0.026484476402401924,0.0017507640877738595,-0.0007955897599458694,-0.0016131903976202011,0.014339763671159744,-3.3922194688784657e-06,0.007588646374642849,6.49484888981533e-07,210.2672119140625,5.712674919777783e-06,-0.01249604020267725,-381.1734313964844,-381.3245849609375,-137.4820098876953,-137.50228881835938,-137.3391571044922,148.0412139892578,-369.4381408691406,369.63330078125,4215.88037109375,4214.94970703125,3217.193603515625,3216.2529296875,-0.6920204162597656,0.00681571289896965,29.138093948364258,-0.00016992674500215799,-0.00017175014363601804,0.0023529501631855965,0.0023525538854300976,0.007588646374642849,8.026752766454592e-06,-3.3922194688784657e-06,-1.3178914741729386e-06,2.4012115001678467,-2.8346829414367676,5.1856369972229,-5.187300205230713,-20.494274139404297,20.560604095458984,-25.949750900268555,25.94662094116211,-13.441913604736328,-13.438946723937988,-10.257699966430664,-10.254701614379883,6.49484888981533e-07,-4.1304465412395075e-05,-4.1304465412395075e-05,-0.6857661008834839,0.00641864538192749,1.0,1.0,1.0,1.0,212.4328155517578,9.301551472162828e-06,29.138986587524414,29.132482528686523,29.132402420043945,29.203474044799805,29.20340919494629,29.13814926147461,0.20500001311302185,1.0,0.0,1.1075317859649658,0.0018599402392283082,-0.11123557388782501,29.399999618530273,-0.0,0.0,0.0,0.0,-29.248443603515625,0.0,3311.42529296875,306.28900146484375,93.97673797607422,93.97640228271484,94.06330871582031,94.06294250488281,-0.017680685967206955,-0.027091417461633682,-4.157368183135986,-3.3180971145629883,1.8872770071029663,1.9082832336425781,1263.5526123046875,1263.2685546875,-2.549025297164917,-3.0245630741119385,1293.183837890625,1293.2806396484375,0.0,34705.58984375,0.7706956267356873,4467.681640625,39174.26953125,0.0,0.0,-17853.33984375,0.0,-48419.6484375,0.001829025219194591,306.28900146484375,-0.00016992674500215799,-0.0014125914312899113,-0.00017175014363601804,0.0012894402025267482,0.007588646374642849,0.0023529501631855965,0.001811804249882698,0.0023525538854300976,-0.0018150749383494258,5,1,5,0,5,
7.450000000000823,210.56006807627588,675.3171681101804,675.3515380795681,680.9589999314968,680.9593154746425,-4.7535812854654385,1.20500004291534,39.344579696665676,28.820817545774844,99.0,1.0,2.0,0.02516764877924816,51.117999999971566,7.812388896942139,213.90842769971366,51.0,51.0,9.781054496765137,9.781054496765137,9.781054496765137,9.781054496765137,0.01131481397897005,-0.00012007986515527591,0.0004374553682282567,-0.0016187290893867612,-5.743869405705482e-05,0.015056063421070576,-0.011266901157796383,-8.204730693250895e-05,-0.00028324697632342577,-0.0016067662509158254,5.6529519497416914e-05,0.015053954906761646,0.023504048585891724,0.026955511420965195,-0.0019452612614259124,-0.0009582759230397642,0.0016205854481086135,0.014412036165595055,-0.023502632975578308,0.026952695101499557,0.0019440598553046584,-0.0009564501815475523,-0.0016205096617341042,0.014410587027668953,-3.3495507523184642e-06,0.007618257310241461,5.296991503200843e-07,210.5585174560547,6.2866934058547486e-06,-0.012431704439222813,-661.49853515625,-661.673583984375,-223.42018127441406,-223.4781494140625,-204.34632873535156,216.8180389404297,-391.0364685058594,391.0805969238281,4242.7158203125,4242.1181640625,3188.778076171875,3187.92626953125,-1.178602933883667,0.008070769719779491,29.129226684570312,-0.003003518795594573,-0.003005791688337922,0.0011797923361882567,0.0011785377282649279,0.007618257310241461,8.017278560146224e-06,-3.3495507523184642e-06,1.3805416756440536e-06,2.8999273777008057,-3.4460160732269287,4.89492654800415,-4.891333103179932,-20.744813919067383,20.777301788330078,-25.642576217651367,25.639774322509766,-13.527475357055664,-13.525569915771484,-10.167099952697754,-10.164383888244629,5.296991503200843e-07,1.3091527762298938e-05,1.3091527762298938e-05,-1.1672488451004028,0.007677345536649227,1.0,1.0,1.0,1.0,212.7241668701172,9.50941648625303e-06,29.130212783813477,29.039247512817383,29.039344787597656,29.15737533569336,29.157352447509766,29.129369735717773,0.2549999952316284,1.0,0.0,1.3988860845565796,0.0011570784263312817,-0.08500463515520096,29.399999618530273,-0.0,0.0,0.0,0.0,-29.122896194458008,0.0,3314.4814453125,304.9742736816406,93.66732788085938,93.66761779785156,93.903076171875,93.90287780761719,-0.014908231794834137,-0.05556773021817207,-2.0622000694274902,-1.3765963315963745,57.86966323852539,57.92911148071289,1267.57666015625,1267.4012451171875,-3.0489110946655273,-3.662311315536499,1381.1297607421875,1381.72021484375,0.0,60503.8515625,0.764093279838562,4594.65625,65099.76953125,0.0,0.0,-22363.2890625,0.0,-74405.5859375,0.0010449718683958054,304.9742736816406,-0.003003518795594573,-0.0011707160156220198,-0.003005791688337922,0.0010242334101349115,0.007618257310241461,0.0011797923361882567,0.0019124161917716265,0.0011785377282649279,-0.0019134462345391512,5,1,5,0,5,
7.460000000000826,210.8512963248067,676.2521672538356,676.2865423992652,681.8971381003704,681.8974525938061,-4.468670034409845,1.20500004291534,39.640122222910925,28.77638474067521,99.0,1.0,2.0,0.02551671429675309,51.12799999997154,7.812971830368042,214.1995992403627,60.0,60.0,15.308125495910645,15.308125495910645,15.308125495910645,15.308125495910645,0.011205334216356277,0.0035685987677425146,-0.00040926667861640453,-0.0031388550996780396,2.179399598389864e-05,0.014943522401154041,-0.01112661324441433,0.0035575225483626127,0.0003822294529527426,-0.0031370739452540874,-2.26912979996996e-05,0.014940699562430382,0.0232964176684618,0.02763785980641842,-0.002234921557828784,-0.0012003916781395674,0.0016307872720062733,0.014511085115373135,-0.023296181112527847,0.027634616941213608,0.002232600701972842,-0.0011982348514720798,-0.0016307386104017496,0.014509749598801136,-2.3079853690433083e-06,0.007683177478611469,9.451169944441062e-07,210.84970092773438,7.061945780151291e-06,-0.012289538979530334,-1053.2076416015625,-1053.34765625,-341.9265441894531,-342.0051574707031,-297.1849670410156,305.7473449707031,-422.08770751953125,421.93524169921875,4284.77197265625,4284.72314453125,3141.22314453125,3140.744140625,-1.8555721044540405,0.005680439528077841,29.114639282226562,-0.0069345710799098015,-0.006936024874448776,-0.0004892165306955576,-0.0004908596747554839,0.007683177478611469,1.0019504770752974e-05,-2.3079853690433083e-06,3.363692258062656e-06,4.058377742767334,-4.479439735412598,4.520349502563477,-4.511608600616455,-21.070409774780273,21.05160140991211,-25.140832901000977,25.139562606811523,-13.661566734313965,-13.66141128540039,-10.015475273132324,-10.013948440551758,9.451169944441062e-07,6.223746458999813e-05,6.223746458999813e-05,-1.8368628025054932,0.005474491976201534,1.0,1.0,1.0,1.0,213.01539611816406,1.046871784637915e-05,29.11579132080078,28.907644271850586,28.907882690429688,29.090261459350586,29.090293884277344,29.11493492126465,0.30000001192092896,1.0,0.0,1.6901286840438843,-0.00014342051872517914,-0.023799559101462364,29.399999618530273,-0.0,0.0,0.0,0.0,-28.997888565063477,0.0,3317.5244140625,303.6651916503906,93.23682403564453,93.23762512207031,93.67122650146484,93.67127227783203,-0.01678355783224106,-0.06954864412546158,4.3798322677612305,3.893359422683716,212.6025390625,212.6774444580078,1274.4195556640625,1274.4154052734375,-4.1967573165893555,-4.684408664703369,1577.8016357421875,1577.8773193359375,0.0,94307.2578125,0.7575504779815674,4938.6005859375,99247.7734375,0.0,0.0,-26753.3046875,0.0,-108641.1796875,-0.0002830940065905452,303.6651916503906,-0.0069345710799098015,-0.0007445712690241635,-0.006936024874448776,0.0006404849700629711,0.007683177478611469,-0.0004892165306955576,0.002076028846204281,-0.0004908596747554839,-0.002073977142572403,5,1,5,0,5,
7.470000000000829,211.14234096877703,677.182414371932,677.2167987580424,682.8326562466771,682.8329722454806,-4.492830467221181,1.20500004291534,39.93342628479961,28.732231389845424,99.0,1.0,2.0,0.02590068636602113,51.13799999997152,7.81360387802124,214.49054378360228,60.0,60.0,21.74333953857422,21.74333953857422,21.74333953857422,21.74333953857422,0.01098659448325634,0.007536655757576227,-0.001223315135575831,-0.00474820751696825,0.0001026474783429876,0.014830350875854492,-0.010909853503108025,0.007485072594136,0.0010302725713700056,-0.004758520517498255,-0.00010355706763220951,0.014827380888164043,0.023010313510894775,0.02851424366235733,-0.0026183961890637875,-0.0015246125403791666,0.0016431022668257356,0.014630572870373726,-0.023011479526758194,0.028510870411992073,0.002615204779431224,-0.001522342092357576,-0.0016430866671726108,0.014629486948251724,-8.467769134767877e-07,0.007803941611200571,1.7229851891897852e-06,211.14064025878906,7.788839866407216e-06,-0.012026974931359291,-1533.4779052734375,-1533.540283203125,-485.360107421875,-485.4401550292969,-392.4723815917969,393.38031005859375,-460.4217224121094,460.1268310546875,4340.9287109375,4341.39208984375,3070.4072265625,3070.402587890625,-2.6812729835510254,0.0008921740227378905,29.092571258544922,-0.011733496561646461,-0.011732793413102627,-0.0026200986467301846,-0.0026212402153760195,0.007803941611200571,1.3273847798700444e-05,-8.467769134767877e-07,3.7500715279747965e-06,5.7399115562438965,-5.850017070770264,4.095472812652588,-4.084466934204102,-21.430469512939453,21.36652946472168,-24.413209915161133,24.414016723632812,-13.840616226196289,-13.842093467712402,-9.78968620300293,-9.789671897888184,1.7229851891897852e-06,8.561962749809027e-05,8.561962749809027e-05,-2.6544511318206787,0.0009721838287077844,1.0,1.0,1.0,1.0,213.3064422607422,1.194751439470565e-05,29.093976974487305,28.74271583557129,28.74301528930664,29.00184440612793,29.001930236816406,29.093097686767578,0.30000001192092896,1.0,0.0,1.9811952114105225,-0.0014223481994122267,0.03972463309764862,29.399999618530273,-0.0,0.0,0.0,0.0,-28.873416900634766,0.0,3320.554443359375,302.3617248535156,92.7038345336914,92.70486450195312,93.36711120605469,93.3674087524414,-0.018867146223783493,-0.05954256281256676,15.059215545654297,12.443794250488281,523.3096313476562,523.3046264648438,1283.8619384765625,1284.01318359375,-5.798590660095215,-5.948161602020264,1935.4500732421875,1933.72607421875,0.0,133266.953125,0.7510632276535034,5625.10009765625,138894.34375,0.0,0.0,-30116.123046875,0.0,-148330.625,-0.0015253776218742132,302.3617248535156,-0.011733496561646461,-0.00019170630548615009,-0.011732793413102627,0.0001752068637870252,0.007803941611200571,-0.0026200986467301846,0.0023142360150814056,-0.0026212402153760195,-0.0023097374942153692,5,1,5,0,5,
7.480000000000833,211.43312122127674,678.1070688529928,678.1414633874015,683.7648805275949,683.7652004804069,-4.484291553520933,1.20500004291534,40.205186462413636,28.690020659330635,99.0,1.0,2.0,0.026598817401030973,51.147999999971496,7.814169883728027,214.78116503511274,60.0,60.0,28.28192138671875,28.28192138671875,28.28192138671875,28.28192138671875,0.010726871900260448,0.010868087410926819,-0.0017291627591475844,-0.006055337842553854,0.00017729020328260958,0.014756526798009872,-0.01068282313644886,0.010802139528095722,0.0014588856138288975,-0.006074065342545509,-0.00017837085761129856,0.014753828756511211,0.022666625678539276,0.029491422697901726,-0.0030647979583591223,-0.0019097349140793085,0.0016553690657019615,0.01474868506193161,-0.022668633610010147,0.029488015919923782,0.00306156137958169,-0.0019077949691563845,-0.0016553543973714113,0.01474769227206707,2.601721575956617e-07,0.008003066293895245,2.548392330936622e-06,211.4312744140625,8.206670827348717e-06,-0.011598235927522182,-2047.5458984375,-2047.501220703125,-636.675048828125,-636.73193359375,-468.6609191894531,461.78076171875,-499.9170227050781,499.6142578125,4408.736328125,4409.45654296875,2975.404541015625,2975.765869140625,-3.5567638874053955,-0.004041002131998539,29.061906814575195,-0.01687232032418251,-0.016868816688656807,-0.005066397599875927,-0.005066131707280874,0.008003066293895245,1.649210025789216e-05,2.601721575956617e-07,2.403719008725602e-06,7.539884567260742,-7.29413366317749,3.655308485031128,-3.64638614654541,-21.831823348999023,21.74855613708496,-23.469579696655273,23.472227096557617,-14.056814193725586,-14.059110641479492,-9.486780166625977,-9.487932205200195,2.548392330936622e-06,7.505133544327691e-05,7.505133544327691e-05,-3.5219104290008545,-0.003718456020578742,1.0,1.0,1.0,1.0,213.5972137451172,1.3495579878508579e-05,29.063663482666016,28.559030532836914,28.55929183959961,28.896223068237305,28.89635467529297,29.062747955322266,0.30000001192092896,1.0,0.0,2.272005796432495,-0.0021147497463971376,0.07731953263282776,29.399999618530273,-0.0,0.0,0.0,0.0,-28.749481201171875,0.0,3323.571533203125,301.0638732910156,92.11709594726562,92.11800384521484,93.00472259521484,93.00523376464844,-0.011174212209880352,-0.020538421347737312,24.78070831298828,20.551212310791016,1003.5569458007812,1003.332275390625,1295.711669921875,1295.9366455078125,-7.433772087097168,-7.178908348083496,2456.161865234375,2452.613525390625,0.0,172348.8125,0.7446282505989075,6679.927734375,179030.859375,0.0,0.0,-31672.09375,0.0,-188293.640625,-0.002137286588549614,301.0638732910156,-0.01687232032418251,0.00039106892654672265,-0.016868816688656807,-0.00031488953391090035,0.008003066293895245,-0.005066397599875927,0.002625200431793928,-0.005066131707280874,-0.0026201726868748665,5,1,5,0,5,
7.490000000000836,211.723550629618,679.0257902902356,679.0601922295172,684.6932951952007,684.6936207290386,-5.144610118891942,1.20500004291534,40.51613388062554,28.64170113052146,99.0,1.0,2.0,0.02729694864410044,51.15799999997147,7.8147618770599365,215.07136326868476,60.0,60.0,34.38348388671875,34.38348388671875,34.38348388671875,34.38348388671875,0.010526521131396294,0.013505087234079838,-0.001942318631336093,-0.0070633841678500175,0.0002418432559352368,0.014771312475204468,-0.010530716739594936,0.01345812063664198,0.0017198784044012427,-0.007083089556545019,-0.0002433238987578079,0.01476895622909069,0.02230469137430191,0.030419806018471718,-0.003519525984302163,-0.00231266301125288,0.0016640579560771585,0.01482835877686739,-0.022306393831968307,0.030416132882237434,0.0035173611249774694,-0.0023115871008485556,-0.0016639790264889598,0.014827010221779346,4.1017193552761455e-07,0.008301026187837124,3.10800214720075e-06,211.7214813232422,8.174893991963472e-06,-0.01096328068524599,-2543.496826171875,-2543.34716796875,-780.6685180664062,-780.6766967773438,-519.4398193359375,508.15594482421875,-533.7389526367188,533.5828857421875,4484.03759765625,4484.6591796875,2859.665771484375,2860.141845703125,-4.398226737976074,-0.006929213646799326,29.022525787353516,-0.021856052801012993,-0.021850721910595894,-0.007693000603467226,-0.007691077888011932,0.008301026187837124,1.8460979845258407e-05,4.1017193552761455e-07,-4.8356501025637044e-08,8.888622283935547,-8.407721519470215,3.184518814086914,-3.1811556816101074,-22.291799545288086,22.224430084228516,-22.362567901611328,22.366186141967773,-14.296905517578125,-14.298887252807617,-9.117758750915527,-9.11927604675293,3.10800214720075e-06,3.7424033507704735e-05,3.7424033507704735e-05,-4.3577165603637695,-0.006508007179945707,1.0,1.0,1.0,1.0,213.8876495361328,1.4655465747637209e-05,29.02471923828125,28.371103286743164,28.371231079101562,28.77823257446289,28.77838897705078,29.02374839782715,0.30000001192092896,1.0,0.0,2.562474012374878,-0.0019183618715032935,0.06457922607660294,29.399999618530273,-0.0,0.0,0.0,0.0,-28.626075744628906,0.0,3326.575439453125,299.7715759277344,91.52105712890625,91.52149200439453,92.59953308105469,92.60012817382812,0.008795528672635555,0.03741283342242241,30.568389892578125,26.790956497192383,1612.4132080078125,1611.9237060546875,1309.31298828125,1309.501708984375,-8.60815715789795,-8.059383392333984,3099.186279296875,3095.4384765625,0.0,208283.484375,0.7382462620735168,8033.11474609375,216318.359375,0.0,0.0,-32001.994140625,0.0,-225387.796875,-0.0018485027831047773,299.7715759277344,-0.021856052801012993,0.0008864953415468335,-0.021850721910595894,-0.0007541906088590622,0.008301026187837124,-0.007693000603467226,0.002987651154398918,-0.007691077888011932,-0.0029845351818948984,5,1,5,0,5,
7.500000000000839,212.0135455642215,679.9386119412113,679.9730156185149,685.6175188227999,685.617850044767,-5.828455877319536,1.20500004291534,40.799832916270205,28.583382477948874,99.0,1.0,2.0,0.027995081551645595,51.16799999997145,7.81538200378418,215.36104625377504,60.0,60.0,39.775508880615234,39.775508880615234,39.775508880615234,39.775508880615234,0.010424031876027584,0.015476854518055916,-0.0019258952233940363,-0.007801842875778675,0.00029401000938378274,0.014904184266924858,-0.01047076378017664,0.015474437735974789,0.0018554850248619914,-0.00781485065817833,-0.00029612172511406243,0.014901806600391865,0.021964946761727333,0.031128648668527603,-0.0038490965962409973,-0.0025921424385160208,0.0016646510921418667,0.014827817678451538,-0.021965032443404198,0.03112434782087803,0.0038493413012474775,-0.002592857228592038,-0.0016644577262923121,0.014825528487563133,-5.774760438725934e-07,0.008711965754628181,3.224402007617755e-06,212.01116943359375,7.732950507488567e-06,-0.010096166282892227,-2993.022216796875,-2992.82373046875,-908.6912841796875,-908.6348266601562,-549.766845703125,539.3668823242188,-556.0148315429688,556.1098022460938,4565.373046875,4565.61181640625,2729.395751953125,2729.710693359375,-5.155900478363037,-0.006608945317566395,28.975008010864258,-0.02639608457684517,-0.02639157697558403,-0.010423068888485432,-0.010420325212180614,0.008711965754628181,1.8565073332865722e-05,-5.774760438725934e-07,-2.5263027509936364e-06,9.559357643127441,-9.068721771240234,2.6058881282806396,-2.6090452671051025,-22.81576919555664,22.794631958007812,-21.158138275146484,21.161563873291016,-14.556235313415527,-14.55699634552002,-8.70240592956543,-8.703410148620605,3.224402007617755e-06,-9.189101547235623e-06,-9.189101547235623e-06,-5.112332820892334,-0.006266904529184103,1.0,1.0,1.0,1.0,214.17764282226562,1.5164181604632176e-05,28.977706909179688,28.188182830810547,28.188127517700195,28.651010513305664,28.651151657104492,28.976654052734375,0.30000001192092896,1.0,0.0,2.852515935897827,-0.0008985589956864715,0.00410064123570919,29.399999618530273,-0.0,0.0,0.0,0.0,-28.50320053100586,0.0,3329.566650390625,298.48480224609375,90.94400024414062,90.94378662109375,92.16185760498047,92.162353515625,0.04645179584622383,0.10139435529708862,32.06393814086914,30.90251922607422,2287.3583984375,2286.801025390625,1324.6217041015625,1324.6888427734375,-9.159649848937988,-8.56611442565918,3803.907958984375,3802.123779296875,0.0,239519.703125,0.7319213151931763,9557.318359375,249080.546875,0.0,0.0,-31582.70703125,0.0,-257903.359375,-0.0007670666091144085,298.48480224609375,-0.02639608457684517,0.0012459547724574804,-0.02639157697558403,-0.0011192879173904657,0.008711965754628181,-0.010423068888485432,0.0033499652054160833,-0.010420325212180614,-0.003350818995386362,5,1,5,0,5,
7.510000000000843,212.3030301668331,680.8458012690041,680.8802002595774,686.53725701983,686.5375921791846,-6.1374996185045,1.20500004291534,41.07780227661999,28.525343491514164,99.0,1.0,2.0,0.028693212586655584,51.177999999971426,7.815979957580566,215.65013424807464,60.0,60.0,44.35764694213867,44.35764694213867,44.35764694213867,44.35764694213867,0.010425854474306107,0.016973424702882767,-0.0017990510677918792,-0.008361630141735077,0.000333843199769035,0.015174741856753826,-0.010491153225302696,0.017021214589476585,0.0019136584596708417,-0.00836384017020464,-0.0003367522149346769,0.015171612612903118,0.021684683859348297,0.03150434046983719,-0.004033876117318869,-0.0027430409099906683,0.0016535212052986026,0.014709574170410633,-0.021682310849428177,0.03149867802858353,0.004036853089928627,-0.002745680743828416,-0.001653178478591144,0.014705794863402843,-2.406017529210658e-06,0.009243102744221687,2.9226937385828933e-06,212.30027770996094,7.084187473083148e-06,-0.008986713364720345,-3383.64697265625,-3383.477783203125,-1018.4618530273438,-1018.3605346679688,-565.6210327148438,560.8319091796875,-562.991455078125,563.3458862304688,4651.60205078125,4651.37890625,2592.1142578125,2592.105224609375,-5.812819004058838,-0.00330342841334641,28.920286178588867,-0.030337002128362656,-0.030336005613207817,-0.013233286328613758,-0.013231581076979637,0.009243102744221687,1.7023114196490496e-05,-2.406017529210658e-06,-3.980544533987995e-06,9.595070838928223,-9.311026573181152,1.834997296333313,-1.8429219722747803,-23.40283966064453,23.439556121826172,-19.924720764160156,19.927209854125977,-14.831167221069336,-14.830456733703613,-8.264697074890137,-8.264668464660645,2.9226937385828933e-06,-4.427517706062645e-05,-4.427517706062645e-05,-5.768385887145996,-0.0031826174817979336,1.0,1.0,1.0,1.0,214.4671173095703,1.5060860278026666e-05,28.923534393310547,28.015941619873047,28.015718460083008,28.516592025756836,28.516672134399414,28.922372817993164,0.30000001192092896,1.0,0.0,3.142054796218872,0.00046837562695145607,-0.06758939474821091,29.399999618530273,-0.0,0.0,0.0,0.0,-28.38085174560547,0.0,3332.544921875,297.2035827636719,90.40313720703125,90.40234375,91.69940185546875,91.69963073730469,0.10380912572145462,0.16164325177669525,31.042741775512695,33.33427810668945,2965.801513671875,2965.529296875,1341.5572509765625,1341.48193359375,-9.152974128723145,-8.776961326599121,4510.74853515625,4512.22412109375,0.0,265583.84375,0.7256541848182678,11128.919921875,276722.6875,0.0,0.0,-30660.013671875,0.0,-285346.15625,0.0005996660329401493,297.2035827636719,-0.030337002128362656,0.0014661293243989348,-0.030336005613207817,-0.001403355156071484,0.009243102744221687,-0.013233286328613758,0.003641368355602026,-0.013231581076979637,-0.003647001227363944,5,1,5,0,5,
7.520000000000846,212.5919384439732,681.747764334882,681.7821540411509,687.4522997936443,687.4526358344036,-5.546626091016305,1.20500004291534,41.320567703259144,28.469526579663878,99.0,1.0,2.0,0.029391343829724897,51.1879999999714,7.816547870635986,215.9385612579442,60.0,60.0,48.1345100402832,48.1345100402832,48.1345100402832,48.1345100402832,0.01051055733114481,0.018025998026132584,-0.0016143167158588767,-0.008755886927247047,0.00036047343746759,0.015595625154674053,-0.010563498362898827,0.01810826174914837,0.001866066362708807,-0.008748182095587254,-0.00036416752845980227,0.015590989030897617,0.021476734429597855,0.03147146850824356,-0.0041262623853981495,-0.0028410288505256176,0.0016274056397378445,0.01443533506244421,-0.021471919491887093,0.03146357834339142,0.004131268244236708,-0.002844987204298377,-0.001626884681172669,0.014429740607738495,-4.4237599468033295e-06,0.009895684197545052,2.4056309939624043e-06,212.58872985839844,6.530411155836191e-06,-0.00763759994879365,-3712.458740234375,-3712.392822265625,-1110.09423828125,-1109.980224609375,-572.0715942382812,575.0628662109375,-555.9928588867188,556.5101928710938,4741.2783203125,4740.73681640625,2456.97265625,2456.657470703125,-6.363814353942871,0.0014740312471985817,28.859397888183594,-0.03361156955361366,-0.03361516073346138,-0.016080819070339203,-0.01608164981007576,0.009895684197545052,1.4767289940209594e-05,-4.4237599468033295e-06,-3.835809820884606e-06,9.194477081298828,-9.231788635253906,0.9145148396492004,-0.9238789677619934,-24.03716278076172,24.119539260864258,-18.738937377929688,18.740482330322266,-15.11709213256836,-15.115365982055664,-7.833811283111572,-7.8328070640563965,2.4056309939624043e-06,-5.325741949491203e-05,-5.325741949491203e-05,-6.3206706047058105,0.0013183489209041,1.0,1.0,1.0,1.0,214.7560272216797,1.4658016880275682e-05,28.86322593688965,27.857582092285156,27.857280731201172,28.37729263305664,28.377288818359375,28.861923217773438,0.30000001192092896,1.0,0.0,3.431023359298706,0.0015689461724832654,-0.11816862970590591,29.399999618530273,-0.0,0.0,0.0,0.0,-28.259029388427734,0.0,3335.510498046875,295.9278564453125,89.90792846679688,89.90687561035156,91.22120666503906,91.2210922241211,0.18016928434371948,0.2166871875524521,28.64362907409668,33.51499557495117,3597.013916015625,3597.308837890625,1359.8619384765625,1359.69091796875,-8.772022247314453,-8.767895698547363,5167.7421875,5172.16748046875,0.0,286636.59375,0.7194403409957886,12636.42578125,299296.40625,0.0,0.0,-29430.59765625,0.0,-307709.34375,0.0016449583927169442,295.9278564453125,-0.03361156955361366,0.0015709522413089871,-0.03361516073346138,-0.0016014630673453212,0.009895684197545052,-0.016080819070339203,0.0038329847157001495,-0.01608164981007576,-0.0038423428777605295,5,1,5,0,5,
7.530000000000849,212.88021470078806,682.644975365576,682.6793549827102,688.3625200458971,688.3628536537788,-5.946213197742041,1.20500004291534,41.63943176270587,28.410654315259503,99.0,1.0,2.0,0.030089476737270065,51.19799999997138,7.817174911499023,216.22627508310538,60.0,60.0,51.16972732543945,51.16972732543945,51.16972732543945,51.16972732543945,0.010649384930729866,0.0187775120139122,-0.0014704697532579303,-0.009099142625927925,0.00037694122875109315,0.016176430508494377,-0.010665131732821465,0.01886434480547905,0.001754364580847323,-0.009086745791137218,-0.0003811850619968027,0.01617010124027729,0.0213304590433836,0.030995521694421768,-0.004150914493948221,-0.0029140759725123644,0.0015841255662962794,0.013984022662043571,-0.021324027329683304,0.03098517842590809,0.004156910814344883,-0.0029187381733208895,-0.0015834375517442822,0.01397678256034851,-5.886152848688653e-06,0.010665446519851685,1.963409204108757e-06,212.87646484375,6.354921424644999e-06,-0.0060636126436293125,-3981.7158203125,-3981.771240234375,-1184.7510986328125,-1184.6773681640625,-573.4771728515625,583.1069946289062,-538.6749877929688,539.2157592773438,4831.919921875,4831.29248046875,2330.38330078125,2329.927734375,-6.815367698669434,0.005798600614070892,28.793386459350586,-0.03621833771467209,-0.036225348711013794,-0.01890634559094906,-0.018910158425569534,0.010665446519851685,1.3041807505942415e-05,-5.886152848688653e-06,-2.1986047613609117e-06,8.593509674072266,-8.931178092956543,-0.0663609504699707,0.05860612168908119,-24.69715118408203,24.793533325195312,-17.646852493286133,17.64804458618164,-15.406092643737793,-15.404092788696289,-7.430193901062012,-7.428741931915283,1.963409204108757e-06,-3.2788055250421166e-05,-3.2788055250421166e-05,-6.774986743927002,0.005411169026046991,1.0,1.0,1.0,1.0,215.0443115234375,1.4400867257791106e-05,28.797805786132812,27.71436309814453,27.7141056060791,28.234956741333008,28.23487091064453,28.796327590942383,0.30000001192092896,1.0,0.0,3.719365119934082,0.001957347383722663,-0.12731781601905823,29.399999618530273,-0.0,0.0,0.0,0.0,-28.13772964477539,0.0,3338.46337890625,294.6576232910156,89.46154022216797,89.46066284179688,90.7343521118164,90.73395538330078,0.27038905024528503,0.26954004168510437,26.747615814208984,32.11396026611328,4146.9140625,4147.765625,1378.9072265625,1378.714111328125,-8.229058265686035,-8.59245777130127,5739.3857421875,5744.84375,0.0,303170.5,0.7132758498191833,13991.130859375,317205.8125,0.0,0.0,-28087.62890625,0.0,-325483.9375,0.0019479611655697227,294.6576232910156,-0.03621833771467209,0.0015989730600267649,-0.036225348711013794,-0.001712121767923236,0.010665446519851685,-0.01890634559094906,0.003924035932868719,-0.018910158425569534,-0.003934694919735193,5,1,5,0,5,
7.540000000000853,213.16781316772918,683.5379165876336,683.5722889683941,689.2678551078103,689.2681841615407,-6.752621698378997,1.20500004291534,41.91841506959068,28.346782594907207,99.0,1.0,2.0,0.030787607772280054,51.207999999971356,7.817811012268066,216.51323597520087,60.0,60.0,53.55549621582031,53.55549621582031,53.55549621582031,53.55549621582031,0.010805293917655945,0.019079452380537987,-0.0013820220483466983,-0.009306402876973152,0.0003734687343239784,0.01692969538271427,-0.010775024071335793,0.019138718023896217,0.0015789162134751678,-0.009296508505940437,-0.0003778377140406519,0.01692318171262741,0.021224845200777054,0.03009359911084175,-0.004125337582081556,-0.002971999580040574,0.0015233374433591962,0.013357829302549362,-0.021218061447143555,0.030081644654273987,0.004131339490413666,-0.0029769481625407934,-0.001522549893707037,0.01334972120821476,-6.183264758874429e-06,0.011544055305421352,1.8507884078644565e-06,213.1634521484375,6.7590849539556075e-06,-0.004288734868168831,-4196.4951171875,-4196.53564453125,-1243.6290283203125,-1243.6339111328125,-573.58349609375,585.936279296875,-514.8831176757812,515.3292236328125,4919.71630859375,4918.97119140625,2214.708251953125,2214.34375,-7.173279285430908,0.00788616482168436,28.72321891784668,-0.038211751729249954,-0.038220226764678955,-0.021648859605193138,-0.021654123440384865,0.011544055305421352,1.2930869161209557e-05,-6.183264758874429e-06,2.063797523987887e-07,8.008658409118652,-8.506458282470703,-1.0266587734222412,1.0219179391860962,-25.348569869995117,25.418720245361328,-16.658781051635742,16.660404205322266,-15.686022758483887,-15.683648109436035,-7.061375617980957,-7.060213565826416,1.8507884078644565e-06,8.343838089786004e-06,8.343838089786004e-06,-7.137091159820557,0.007363502401858568,1.0,1.0,1.0,1.0,215.3319091796875,1.4679339983558748e-05,28.728235244750977,27.585840225219727,27.5856990814209,28.09104347229004,28.090917587280273,28.72654151916504,0.30000001192092896,1.0,0.0,4.007032871246338,0.0014727427624166012,-0.08813171088695526,29.399999618530273,-0.0,0.0,0.0,0.0,-28.016950607299805,0.0,3341.4033203125,293.392822265625,89.0616226196289,89.06110382080078,90.24384307861328,90.24335479736328,0.3669187128543854,0.3283180892467499,25.712671279907227,29.266149520874023,4599.28662109375,4600.36767578125,1397.6195068359375,1397.3992919921875,-7.718760967254639,-8.295103073120117,6204.791015625,6208.0517578125,0.0,315814.90625,0.7071630954742432,15130.5439453125,331018.0,0.0,0.0,-26830.021484375,0.0,-339141.78125,0.001380711211822927,293.392822265625,-0.038211751729249954,0.0015950247179716825,-0.038220226764678955,-0.0017453195760026574,0.011544055305421352,-0.021648859605193138,0.003929065074771643,-0.021654123440384865,-0.003938254900276661,5,1,5,0,5,
7.550000000000856,213.4546972072052,684.427030729625,684.4613980302242,690.1682727637691,690.168597624567,-6.702237462982741,1.20500004291534,42.19948997498722,28.2826348101781,99.0,1.0,2.0,0.031485739015349366,51.21799999997133,7.818359851837158,216.79941550962778,60.0,60.0,55.39316177368164,55.39316177368164,55.39316177368164,55.39316177368164,0.010978936217725277,0.019049514085054398,-0.0013033518334850669,-0.009383248165249825,0.00035127592855133116,0.017861507833003998,-0.010914339683949947,0.019062388688325882,0.0013351024826988578,-0.009382417425513268,-0.000355360476532951,0.017859259620308876,0.021141182631254196,0.02883245423436165,-0.004065248649567366,-0.003017634619027376,0.0014468726003542542,0.012583273462951183,-0.021135268732905388,0.028820626437664032,0.004070535767823458,-0.003022661665454507,-0.0014460969250649214,0.01257549412548542,-4.990519300918095e-06,0.012519625946879387,2.1846597064723028e-06,213.44967651367188,7.836240911274217e-06,-0.0023444187827408314,-4363.89208984375,-4363.62255859375,-1289.1446533203125,-1289.2904052734375,-573.6922607421875,583.7596435546875,-487.6385498046875,487.93768310546875,5002.05517578125,5000.52978515625,2108.65576171875,2108.64599609375,-7.452188491821289,0.007028952706605196,28.649776458740234,-0.039676763117313385,-0.03968734294176102,-0.024306612089276314,-0.024310458451509476,0.012519625946879387,1.4977082173572853e-05,-4.990519300918095e-06,2.331775704078609e-06,7.491111755371094,-7.946633338928223,-1.9214438199996948,1.9192274808883667,-25.98943328857422,26.00053596496582,-15.75865650177002,15.761652946472168,-15.948553085327148,-15.943689346313477,-6.723237991333008,-6.723206520080566,2.1846597064723028e-06,5.290100671118125e-05,5.290100671118125e-05,-7.420919418334961,0.0064631118439137936,1.0,1.0,1.0,1.0,215.61878967285156,1.5666080798837356e-05,28.65538215637207,27.47039031982422,27.470258712768555,27.945964813232422,27.945877075195312,28.653432846069336,0.30000001192092896,1.0,0.0,4.293990135192871,0.0003247057320550084,-0.023722181096673012,29.399999618530273,-0.0,0.0,0.0,0.0,-27.89668846130371,0.0,3344.3310546875,292.1334533691406,88.70243835449219,88.7017593383789,89.75081634521484,89.75057983398438,0.4534413814544678,0.39449000358581543,24.719266891479492,25.03876304626465,4952.8779296875,4953.923828125,1415.2220458984375,1414.7806396484375,-7.305161952972412,-7.851787567138672,6565.77734375,6563.6689453125,0.0,325219.6875,0.7011060118675232,16050.326171875,341375.1875,0.0,0.0,-25724.8671875,0.0,-349402.1875,0.00019285122107248753,292.1334533691406,-0.039676763117313385,0.0015759040834382176,-0.03968734294176102,-0.0017030737362802029,0.012519625946879387,-0.024306612089276314,0.0038718346040695906,-0.024310458451509476,-0.0038774001877754927,5,1,5,0,5,
7.560000000000859,213.74083815435066,685.312698404387,685.347053617671,691.0637634082121,691.0640884989657,-6.346451759333776,1.20500004291534,42.49968566895617,28.217096322019344,99.0,1.0,2.0,0.03218387192289452,51.22799999997131,7.818949937820435,217.0847939423777,60.0,60.0,56.781585693359375,56.781585693359375,56.781585693359375,56.781585693359375,0.011171354912221432,0.018861765041947365,-0.0011962788412347436,-0.009411011822521687,0.0003166646638419479,0.018966469913721085,-0.011100411415100098,0.018829746171832085,0.0010584573028609157,-0.009422403760254383,-0.0003200016508344561,0.01897824928164482,0.021062089130282402,0.027269801124930382,-0.0039814128540456295,-0.0030531538650393486,0.0013560971710830927,0.011682627722620964,-0.02105790749192238,0.02726050466299057,0.003985568881034851,-0.003058195812627673,-0.0013554778415709734,0.011676625348627567,-2.074026269838214e-06,0.013579001650214195,2.8934559850313235e-06,213.73509216308594,9.736156243889127e-06,-0.0002635363780427724,-4491.3564453125,-4490.3642578125,-1324.8936767578125,-1325.2125244140625,-573.4204711914062,577.1569213867188,-459.3611755371094,459.5226135253906,5077.27587890625,5073.013671875,2012.988037109375,2013.613525390625,-7.667109489440918,0.003210285445675254,28.573793411254883,-0.040706817060709,-0.04072896018624306,-0.026884429156780243,-0.026881171390414238,0.013579001650214195,1.915297980303876e-05,-2.074026269838214e-06,3.189869175912463e-06,7.015110492706299,-7.239640712738037,-2.721355438232422,2.7194249629974365,-26.61142349243164,26.54769515991211,-14.946761131286621,14.952089309692383,-16.188386917114258,-16.17479705810547,-6.418211460113525,-6.420205116271973,2.8934559850313235e-06,8.220871677622199e-05,8.220871677622199e-05,-7.6402788162231445,0.002568234922364354,1.0,1.0,1.0,1.0,215.90493774414062,1.7236015992239118e-05,28.579980850219727,27.366012573242188,27.36551856994629,27.80084228515625,27.80091094970703,28.577733993530273,0.30000001192092896,1.0,0.0,4.580206394195557,-0.000951353635173291,0.03319466486573219,29.399999618530273,-0.0,0.0,0.0,0.0,-27.776945114135742,0.0,3347.245849609375,290.8794860839844,88.37725830078125,88.37489318847656,89.25961303710938,89.2601089477539,0.5268787741661072,0.4715626835823059,23.07016372680664,20.194292068481445,5215.6064453125,5217.31689453125,1431.19091796875,1429.95556640625,-6.9629130363464355,-7.251001834869385,6827.0859375,6816.69921875,0.0,331999.75,0.695124089717865,16764.298828125,348899.53125,0.0,0.0,-24742.080078125,0.0,-356927.25,-0.0010636342922225595,290.8794860839844,-0.040706817060709,0.0015398174291476607,-0.04072896018624306,-0.0015948732616379857,0.013579001650214195,-0.026884429156780243,0.003771519986912608,-0.026881171390414238,-0.00377209996804595,5,1,5,0,5,
7.570000000000863,214.02621397015864,686.1952234993323,686.2295412628166,691.9543678534151,691.9547028477914,-6.375695323997284,1.20500004291534,42.7759429931735,28.159890825421417,99.0,1.0,2.0,0.03288200295790453,51.23799999997129,7.819593906402588,217.36935756330607,60.0,60.0,57.81071853637695,57.81071853637695,57.81071853637695,57.81071853637695,0.01138542965054512,0.018573829904198647,-0.0010230815969407558,-0.009422624483704567,0.0002706509840209037,0.02025613747537136,-0.01134074479341507,0.018516451120376587,0.0007812298135831952,-0.009445001371204853,-0.0002727561513893306,0.020294344052672386,0.020972535014152527,0.025454126298427582,-0.0038816253654658794,-0.0030804588459432125,0.0012520257150754333,0.010673909448087215,-0.020970547571778297,0.025450093671679497,0.003884504083544016,-0.003085538512095809,-0.0012517262948676944,0.010671211406588554,2.4875762392184697e-06,0.014709798619151115,3.7541112760663964e-06,214.01971435546875,1.2515199159679469e-05,0.0019221510738134384,-4584.97314453125,-4583.27685546875,-1353.3387451171875,-1353.882080078125,-571.0408935546875,566.9411010742188,-431.8526611328125,431.9317932128906,5140.06103515625,5130.95751953125,1928.9268798828125,1930.432373046875,-7.82587194442749,-0.0018709328724071383,28.495874404907227,-0.041413839906454086,-0.041463568806648254,-0.02934950217604637,-0.02933260053396225,0.014709798619151115,2.48061514867004e-05,2.4875762392184697e-06,2.3985123789316276e-06,6.485886573791504,-6.37708044052124,-3.406404495239258,3.401846408843994,-27.17973518371582,27.04973602294922,-14.227234840393066,14.23564338684082,-16.38857078552246,-16.35954475402832,-6.150190353393555,-6.154990196228027,3.7541112760663964e-06,8.477970550302416e-05,8.477970550302416e-05,-7.8037638664245605,-0.0022728238254785538,1.0,1.0,1.0,1.0,216.1903076171875,1.9020671970793046e-05,28.502639770507812,27.27008056640625,27.268678665161133,27.657203674316406,27.657590866088867,28.50005340576172,0.30000001192092896,1.0,0.0,4.865659713745117,-0.0018124401103705168,0.06166010722517967,29.399999618530273,-0.0,0.0,0.0,0.0,-27.657712936401367,0.0,3350.148193359375,289.6308898925781,88.07677459716797,88.07073974609375,88.77580261230469,88.77764129638672,0.5898156762123108,0.5569371581077576,20.066564559936523,15.390634536743164,5401.78857421875,5406.2763671875,1443.93115234375,1441.2821044921875,-6.586048603057861,-6.485872745513916,6995.9013671875,6981.41943359375,0.0,336696.3125,0.689317524433136,17292.033203125,354154.875,0.0,0.0,-23919.623046875,0.0,-362107.09375,-0.0018604602664709091,289.6308898925781,-0.041413839906454086,0.0014732606941834092,-0.041463568806648254,-0.001437640399672091,0.014709798619151115,-0.02934950217604637,0.003642693627625704,-0.02933260053396225,-0.0036379084922373295,5,1,5,0,5,
7.580000000000866,214.31080801650126,687.0748157897057,687.1090555963488,692.8401889385964,692.8405489457358,-7.510954809153865,1.20500004291534,43.02644309998848,28.088521510159747,99.0,1.0,2.0,0.03358013420097398,51.24799999997126,7.820191860198975,217.65309803167662,60.0,60.0,58.55866241455078,58.55866241455078,58.55866241455078,58.55866241455078,0.011625383980572224,0.018209386616945267,-0.0007624293211847544,-0.0094319311901927,0.0002129528293153271,0.021724393591284752,-0.011629492044448853,0.01815761625766754,0.0005247959634289145,-0.009460126981139183,-0.00021374197967816144,0.021792110055685043,0.02086053043603897,0.023419242352247238,-0.003771482966840267,-0.003101023845374584,0.0011350015411153436,0.0095687136054039,-0.02086089551448822,0.023424388840794563,0.0037734159268438816,-0.0031060727778822184,-0.0011352535802870989,0.009571309201419353,8.004783012438565e-06,0.0158995371311903,4.4776397771784104e-06,214.3035125732422,1.5935640476527624e-05,0.004182774573564529,-4652.87353515625,-4651.20068359375,-1379.082275390625,-1379.56396484375,-564.7816772460938,554.5492553710938,-406.6360778808594,406.6873474121094,5190.6640625,5177.00634765625,1859.6239013671875,1861.8096923828125,-7.949246406555176,-0.006093580275774002,28.416494369506836,-0.04189388081431389,-0.04197751358151436,-0.031679652631282806,-0.03164138272404671,0.0158995371311903,3.073833431699313e-05,8.004783012438565e-06,2.69391250640183e-07,5.810625076293945,-5.403762340545654,-3.9733877182006836,3.96308970451355,-27.686647415161133,27.526947021484375,-13.61931037902832,13.628804206848145,-16.54991340637207,-16.506366729736328,-5.929224491119385,-5.936193943023682,4.4776397771784104e-06,5.8375499065732583e-05,5.8375499065732583e-05,-7.93123722076416,-0.006140011828392744,1.0,1.0,1.0,1.0,216.4748992919922,2.058138488791883e-05,28.423837661743164,27.179889678955078,27.177343368530273,27.517139434814453,27.5179500579834,28.420867919921875,0.30000001192092896,1.0,0.0,5.150332450866699,-0.0019181057577952743,0.05149117857217789,29.399999618530273,-0.0,0.0,0.0,0.0,-27.53899574279785,0.0,3353.038330078125,288.3876953125,87.79267883300781,87.78250885009766,88.30816650390625,88.31156921386719,0.6317998170852661,0.6281481981277466,15.375384330749512,11.023719787597656,5529.75537109375,5538.7666015625,1453.421630859375,1449.435302734375,-6.05429744720459,-5.594461441040039,7104.701171875,7096.4599609375,0.0,339777.125,0.6837465763092041,17714.240234375,357683.6875,0.0,0.0,-23008.291015625,0.0,-365611.625,-0.0018818010576069355,288.3876953125,-0.04189388081431389,0.0013577210484072566,-0.04197751358151436,-0.0012499213917180896,0.0158995371311903,-0.031679652631282806,0.0034943518694490194,-0.03164138272404671,-0.003485697088763118,5,1,5,0,5,
7.590000000000869,214.59460747998392,687.9516197895196,687.9857478091996,693.7214581404713,693.7218574164408,-6.76645689012746,1.20500004291534,43.34785690308711,28.023818418652464,99.0,1.0,2.0,0.03427826710851898,51.25799999997124,7.82096004486084,217.93601009454724,60.0,60.0,59.09090042114258,59.09090042114258,59.09090042114258,59.09090042114258,0.011893697082996368,0.017788395285606384,-0.0004191790649201721,-0.009444264695048332,0.0001437137834727764,0.023338787257671356,-0.011948449537158012,0.0177728570997715,0.00029358305619098246,-0.009470793418586254,-0.00014387616829480976,0.02342209219932556,0.0207119919359684,0.021163996309041977,-0.003653121879324317,-0.0031174388714134693,0.0010035032173618674,0.008361649699509144,-0.02071460150182247,0.021181659772992134,0.0036546995397657156,-0.0031222710385918617,-0.0010045182425528765,0.008371113799512386,1.3332867638382595e-05,0.017136691138148308,4.823038580070715e-06,214.5865020751953,1.9491704733809456e-05,0.006493817083537579,-4702.61181640625,-4702.150390625,-1404.2601318359375,-1404.622802734375,-553.6600952148438,541.6387939453125,-385.1708679199219,385.2425537109375,5234.4697265625,5220.2578125,1810.02734375,1812.51123046875,-8.045784950256348,-0.007811558898538351,28.335952758789062,-0.04219834879040718,-0.042299654334783554,-0.03371540829539299,-0.033660925924777985,0.017136691138148308,3.560149343684316e-05,1.3332867638382595e-05,-2.3119057459553005e-06,4.943175315856934,-4.408090591430664,-4.407276630401611,4.390652656555176,-28.152992248535156,28.019514083862305,-13.153139114379883,13.16124153137207,-16.68958282470703,-16.644269943237305,-5.771090984344482,-5.779010772705078,4.823038580070715e-06,1.3450517144519836e-05,1.3450517144519836e-05,-8.032180786132812,-0.007301648147404194,1.0,1.0,1.0,1.0,216.75869750976562,2.1587262381217442e-05,28.34387969970703,27.093900680541992,27.090736389160156,27.385257720947266,27.386425018310547,28.340476989746094,0.30000001192092896,1.0,0.0,5.434211730957031,-0.0012069283984601498,0.004462509881705046,29.399999618530273,-0.0,0.0,0.0,0.0,-27.420785903930664,0.0,3355.915771484375,287.1498107910156,87.52113342285156,87.50930786132812,87.87359619140625,87.87821197509766,0.6508505344390869,0.669212281703949,9.284451484680176,7.179703712463379,5613.45849609375,5626.3212890625,1461.13525390625,1456.970703125,-5.285971164703369,-4.658979892730713,7180.0,7189.138671875,0.0,341650.3125,0.6780873537063599,18076.310546875,359941.03125,0.0,0.0,-21855.654296875,0.0,-367714.75,-0.0010994153562933207,287.1498107910156,-0.04219834879040718,0.0011791578726843,-0.042299654334783554,-0.001047393074259162,0.017136691138148308,-0.03371540829539299,0.0033275908790528774,-0.033660925924777985,-0.0033179447054862976,5,1,5,0,5,
7.600000000000873,214.87760204983508,688.8257598429187,688.8597803819531,694.5985451610898,694.5989940245212,-7.253577375414406,1.20500004291534,43.621059799205035,27.951615825421342,99.0,1.0,2.0,0.03497639814352898,51.26799999997122,7.821530818939209,218.218091654246,60.0,60.0,59.4608039855957,59.4608039855957,59.4608039855957,59.4608039855957,0.012189297936856747,0.017340367659926414,-2.5003799237310886e-05,-0.00946215633302927,6.43193707219325e-05,0.025045108050107956,-0.012272767722606659,0.01737888902425766,7.181812543421984e-05,-0.009480020962655544,-6.554083665832877e-05,0.025111550465226173,0.02052231691777706,0.01874099299311638,-0.003533450188115239,-0.003128546755760908,0.0008591475780121982,0.007075101137161255,-0.020526308566331863,0.01877021975815296,0.00353527395054698,-0.003133011981844902,-0.0008608921198174357,0.007090690080076456,1.6975560356513597e-05,0.01840869151055813,4.696383257396519e-06,214.86865234375,2.2406415155273862e-05,0.008830438368022442,-4740.59716796875,-4742.28564453125,-1425.5311279296875,-1425.702392578125,-538.0667724609375,529.600341796875,-367.7724609375,367.9294738769531,5281.28857421875,5274.03955078125,1777.316650390625,1779.7110595703125,-8.124232292175293,-0.00557717215269804,28.254472732543945,-0.04233555495738983,-0.042409904301166534,-0.03530355542898178,-0.03524099662899971,0.01840869151055813,3.824665691354312e-05,1.6975560356513597e-05,-4.167645329289371e-06,3.9071805477142334,-3.4902877807617188,-4.699306011199951,4.676767826080322,-28.62847137451172,28.580230712890625,-12.803608894348145,12.808722496032715,-16.83885955810547,-16.81574821472168,-5.6667962074279785,-5.674430847167969,4.696383257396519e-06,-3.283738988102414e-05,-3.283738988102414e-05,-8.115577697753906,-0.004642273765057325,1.0,1.0,1.0,1.0,217.0417022705078,2.1971251044305973e-05,28.262985229492188,27.011802673339844,27.009374618530273,27.26422119140625,27.26563835144043,28.25910186767578,0.30000001192092896,1.0,0.0,5.717287063598633,2.2668411475024186e-05,-0.054368335753679276,29.399999618530273,-0.0,0.0,0.0,0.0,-27.303083419799805,0.0,3358.781005859375,285.917236328125,87.26271057128906,87.25467681884766,87.47877502441406,87.48411560058594,0.6455328464508057,0.6702907085418701,2.6405816078186035,3.6318347454071045,5660.80908203125,5672.70068359375,1469.8280029296875,1467.66455078125,-4.279195308685303,-3.774658679962158,7245.2548828125,7277.10302734375,0.0,342651.09375,0.6719223856925964,18386.65625,361263.71875,0.0,0.0,-20624.3515625,0.0,-368940.0625,0.00015436131798196584,285.917236328125,-0.04233555495738983,0.0009359229006804526,-0.042409904301166534,-0.0008386662229895592,0.01840869151055813,-0.03530355542898178,0.003156013321131468,-0.03524099662899971,-0.00314884539693594,5,1,5,0,5,
